{
  "length": 66,
  "data": [
    {
      "latitude": 48.14657425,
      "property_id": 845,
      "street": "Podunajsk√°, Bratislava II, Bratislava-Podunajsk√© Biskupice",
      "room_category": "1",
      "median_ppm": 4598.5,
      "pt_ratio": 1.08,
      "url": "https://www.nehnutelnosti.sk/detail/JurWFkZAC7Y/novostavba--median-house-1-izl-podunajska-ull-podunajske-biskupicel-ba-iil-125-000l----wwwblrealitycom",
      "title": "NOVOSTAVBA ‚Äì Median House: 1 iz., Podunajsk√° ul., Podunajsk√© Biskupice, BA II., 125 000,-‚Ç¨ - www.BLREALITY.COM",
      "longitude": 17.20530845,
      "city": "Bratislava II",
      "district": "Bratislava II",
      "price_per_meter": 4980.08,
      "pt_category": "üü° Normal"
    },
    {
      "latitude": 48.12565779896443,
      "property_id": 13630,
      "street": "R√∂ntgenova, Bratislava V, Bratislava-Petr≈æalka",
      "room_category": "4",
      "median_ppm": 3642.71,
      "pt_ratio": 0.8,
      "url": "https://www.nehnutelnosti.sk/detail/Ju5J0Co-8Yo/4-i-bytl-rontgenova-ulical-87-m2l-uzasna-lokalita",
      "title": "4 i byt, R√∂ntgenova ulica, 87 m2, √∫≈æasn√° lokalita",
      "longitude": 17.102684473483716,
      "city": "Bratislava V",
      "district": "Bratislava V",
      "price_per_meter": 2931.03,
      "pt_category": "üü¢ Deal"
    },
    {
      "latitude": 48.15900928246749,
      "property_id": 13640,
      "street": "Jozefa C√≠gera Hronsk√©ho, Bratislava III, Bratislava-Nov√© Mesto",
      "room_category": "Orn√° poda",
      "median_ppm": 2705.62,
      "pt_ratio": 0.95,
      "url": "https://www.nehnutelnosti.sk/detail/Juz7SpW9awB/na-predaj-zrekonstruovane-obchodne-a-kancelarske-priestory-so-sluzobnym-bytom---racianske-myto",
      "title": "Na predaj zrekon≈°truovan√© obchodn√© a kancel√°rske priestory so slu≈æobn√Ωm bytom - Raƒçianske M√Ωto",
      "longitude": 17.119548653582136,
      "city": "Bratislava III",
      "district": "Bratislava III",
      "price_per_meter": 2578.95,
      "pt_category": "üü° Normal"
    },
    {
      "latitude": 48.14271005,
      "property_id": 13643,
      "street": "Pr√≠stavn√° 1, Bratislava II, Bratislava-Ru≈æinov",
      "room_category": "1",
      "median_ppm": 4598.5,
      "pt_ratio": 1.04,
      "url": "https://www.nehnutelnosti.sk/detail/Ju_zkyAUNLW/1-izbovy-apartman-v-premiovom-projekte-v-blizkosti-downtownul-35l5-m2l-mozny-odpocet-dph",
      "title": "1-IZBOV√ù APARTM√ÅN V PR√âMIOVOM PROJEKTE V BL√çZKOSTI DOWNTOWNU, 35,5 M2, mo≈æn√Ω odpoƒçet DPH",
      "longitude": 17.140637210426036,
      "city": "Bratislava II",
      "district": "Bratislava II",
      "price_per_meter": 4763.38,
      "pt_category": "üü° Normal"
    },
    {
      "latitude": 48.14216936507395,
      "property_id": 13644,
      "street": "Pr√≠stavn√° 1, Bratislava I, Bratislava-Star√© Mesto",
      "room_category": "2",
      "median_ppm": 4998.57,
      "pt_ratio": 0.87,
      "url": "https://www.nehnutelnosti.sk/detail/JuzPOfznYN7/nadstandardny-2-izbovy-byt-v-premiovom-projekte-pristavna-1-v-blizkosti-downtownul-78-m2l-odpocet-dph",
      "title": "Nad≈°tandardn√Ω 2-izbov√Ω byt v pr√©miovom projekte Pr√≠stavn√° 1 v bl√≠zkosti downtownu, 78 m2, odpoƒçet DPH",
      "longitude": 17.130362650139208,
      "city": "Bratislava I",
      "district": "Bratislava I",
      "price_per_meter": 4326.5,
      "pt_category": "üü¢ Deal"
    },
    {
      "latitude": 48.09612695,
      "property_id": 13645,
      "street": "Humensk√© n√°mestie, Bratislava V, Bratislava-Petr≈æalka",
      "room_category": "3",
      "median_ppm": 3283.58,
      "pt_ratio": 1.02,
      "url": "https://www.nehnutelnosti.sk/detail/JuJZZJV1pGh/predaj--slnecny-3--izb-byt-2l5-izbl-68l75-m2--balkon-8l94-m2-v-starsej-novostavbe-r2008l-humenske-naml-ba-v--petrzalka",
      "title": "Predaj- slneƒçn√Ω 3- izb. byt (2,5 izb., 68,75 m2 + balk√≥n 8,94 m2) v star≈°ej novostavbe (r.2008), Humensk√© n√°m., BA V- Petr≈æalka",
      "longitude": 17.115731579821702,
      "city": "Bratislava V",
      "district": "Bratislava V",
      "price_per_meter": 3344,
      "pt_category": "üü° Normal"
    },
    {
      "latitude": 48.1307717,
      "property_id": 13679,
      "street": "Ulica Svornosti, Bratislava II, Bratislava-Podunajsk√© Biskupice",
      "room_category": "Z√°hrada",
      "median_ppm": 585.11,
      "pt_ratio": 0.17,
      "url": "https://www.nehnutelnosti.sk/detail/Ju5iq89Zfvu/predaj-zahrady-pri-ulici-svornosti-v-podunajskych-biskupiciach",
      "title": "Predaj z√°hrady pri ulici Svornosti v Podunajsk√Ωch Biskupiciach",
      "longitude": 17.1922011,
      "city": "Bratislava II",
      "district": "Bratislava II",
      "price_per_meter": 100,
      "pt_category": "üü¢ Deal"
    },
    {
      "latitude": 48.1563288,
      "property_id": 13677,
      "street": "Na Piesku, Bratislava II, Bratislava-Ru≈æinov",
      "room_category": "2",
      "median_ppm": 3989.96,
      "pt_ratio": 0.97,
      "url": "https://www.nehnutelnosti.sk/detail/JuH1Yyqb29I/stylovy-2-izbovy-byt-s-parkovanim-v-uzatvorenom-areali-v-ruzinove---na-piesku",
      "title": "≈†t√Ωlov√Ω 2 izbov√Ω byt s parkovan√≠m v uzatvorenom are√°li v Ru≈æinove - Na piesku",
      "longitude": 17.1847488,
      "city": "Bratislava II",
      "district": "Bratislava II",
      "price_per_meter": 3852.08,
      "pt_category": "üü° Normal"
    },
    {
      "latitude": 48.15793349078408,
      "property_id": 13678,
      "street": "≈†ancov√°, Bratislava III, Bratislava-Nov√© Mesto",
      "room_category": "3",
      "median_ppm": 3693.015,
      "pt_ratio": 1.05,
      "url": "https://www.nehnutelnosti.sk/detail/JuSvw0MlE-g/na-predaj-zrekonstruovany-2l5-izbovy-byt-72m2-v-unitasl-sancova-ull-ba-nove-mesto",
      "title": "Na predaj zrekon≈°truovan√Ω 2,5 izbov√Ω byt 72m2 v UNITAS, ≈†ancova ul., BA Nov√© Mesto",
      "longitude": 17.123695971315712,
      "city": "Bratislava III",
      "district": "Bratislava III",
      "price_per_meter": 3888.89,
      "pt_category": "üü° Normal"
    },
    {
      "latitude": 48.1486,
      "property_id": 13681,
      "street": "Jungmanova 10, Bratislava V, Bratislava-Petr≈æalka",
      "room_category": "3",
      "median_ppm": 3283.58,
      "pt_ratio": 0.88,
      "url": "https://www.nehnutelnosti.sk/detail/JukmHe7FcaS/3-izbovy-byt-s-krasnym-vyhladom-na-bratislavu-na-jugmanovej-ulici",
      "title": "3-IZBOV√ù BYT S KR√ÅSNYM V√ùHƒΩADOM NA BRATISLAVU NA JUGMANOVEJ ULICI",
      "longitude": 17.1077,
      "city": "Bratislava V",
      "district": "Bratislava V",
      "price_per_meter": 2894.74,
      "pt_category": "üü¢ Deal"
    },
    {
      "latitude": 48.14424558687921,
      "property_id": 13684,
      "street": "Nov√© z√°hrady II, Bratislava II, Bratislava-Ru≈æinov",
      "room_category": "Pozemok",
      "median_ppm": 390,
      "pt_ratio": 0.99,
      "url": "https://www.nehnutelnosti.sk/detail/JuixN_2kqN2/urbanista--stavebny-pozemok-v-ruzinove-so-stavebnym-povolenim-pre-moderny-rodinny-dom",
      "title": "URBANISTA | Stavebn√Ω pozemok v Ru≈æinove so stavebn√Ωm povolen√≠m pre modern√Ω rodinn√Ω dom",
      "longitude": 17.185600779114264,
      "city": "Bratislava II",
      "district": "Bratislava II",
      "price_per_meter": 385.97,
      "pt_category": "üü° Normal"
    },
    {
      "latitude": 48.18864883633356,
      "property_id": 13694,
      "street": "Na vr√°tkach, Bratislava IV, Bratislava-D√∫bravka",
      "room_category": "Kancel√°rie, administrat√≠vne priestory",
      "median_ppm": 1113.66,
      "pt_ratio": 0.18,
      "url": "https://www.nehnutelnosti.sk/detail/JunJbWaMLfl/pozemok-788-m2l-ba-dubravkal-na-parkovanie-a-ine",
      "title": "Pozemok 788 m2, BA-D√∫bravka, na parkovanie a in√©",
      "longitude": 17.045042826200806,
      "city": "Bratislava IV",
      "district": "Bratislava IV",
      "price_per_meter": 196.07,
      "pt_category": "üü¢ Deal"
    },
    {
      "latitude": 48.1577148395028,
      "property_id": 840,
      "street": "Kom√°rnick√°, Bratislava II, Bratislava-Ru≈æinov",
      "room_category": "2",
      "median_ppm": 3989.96,
      "pt_ratio": 0.96,
      "url": "https://www.nehnutelnosti.sk/detail/JuZ8UimTwpW/2-izbovy-priestranny-byt-s-loggiou-a-balkonoml-bratislava--ruzinovl-strkovec",
      "title": "2 izbov√Ω priestrann√Ω byt s loggiou a balk√≥nom, Bratislava ‚Äì Ru≈æinov, ≈†trkovec",
      "longitude": 17.15319421300798,
      "city": "Bratislava II",
      "district": "Bratislava II",
      "price_per_meter": 3830.51,
      "pt_category": "üü° Normal"
    },
    {
      "latitude": 48.096919099999994,
      "property_id": 842,
      "street": "V√≠gƒæa≈°sk√° 9, Bratislava V, Bratislava-Petr≈æalka",
      "room_category": "3",
      "median_ppm": 3283.58,
      "pt_ratio": 0.82,
      "url": "https://www.nehnutelnosti.sk/detail/Ju-dEJqPQaDq/velky-3-izb-byt-v-petrzalke-s-dvoma-lodziami",
      "title": "Veƒæk√Ω 3-izb. byt v Petr≈æalke s dvoma lod≈æiami",
      "longitude": 17.10828074637024,
      "city": "Bratislava V",
      "district": "Bratislava V",
      "price_per_meter": 2707.25,
      "pt_category": "üü¢ Deal"
    },
    {
      "latitude": 48.1443147255196,
      "property_id": 855,
      "street": "Mudro≈àova, Bratislava I, Bratislava-Star√© Mesto",
      "room_category": "4",
      "median_ppm": 4429.58,
      "pt_ratio": 1.14,
      "url": "https://www.nehnutelnosti.sk/detail/Ju0zelM5ySk/lexxus--priestranny-a-charizmaticky-byt-na-hradom-vrchu-s-garazou",
      "title": "LEXXUS | priestrann√Ω a charizmatick√Ω byt na hradom vrchu s gar√°≈æou",
      "longitude": 17.094782804350398,
      "city": "Bratislava I",
      "district": "Bratislava I",
      "price_per_meter": 5038.76,
      "pt_category": "üî¥ Pricey"
    },
    {
      "latitude": 48.145925124268665,
      "property_id": 13646,
      "street": "Telocviƒçn√°, Bratislava II, Bratislava-Ru≈æinov",
      "room_category": "Rodinn√Ω dom",
      "median_ppm": 2870.37,
      "pt_ratio": 1.03,
      "url": "https://www.nehnutelnosti.sk/detail/JugRG9DXKSK/exkluzivne--na-predaj-tehlovy-rodinny-dom-v-ruzinove",
      "title": "Exkluz√≠vne | Na predaj tehlov√Ω rodinn√Ω dom v Ru≈æinove",
      "longitude": 17.175475742838604,
      "city": "Bratislava II",
      "district": "Bratislava II",
      "price_per_meter": 2960,
      "pt_category": "üü° Normal"
    },
    {
      "latitude": 48.13323645,
      "property_id": 13639,
      "street": "Odesk√°, Bratislava II, Bratislava-Podunajsk√© Biskupice",
      "room_category": "Rodinn√Ω dom",
      "median_ppm": 2870.37,
      "pt_ratio": 1.26,
      "url": "https://www.nehnutelnosti.sk/detail/Jutg6cKcEKn/dom-realit-ponukal-zariadena-neobyvana-novostavba-v-podunajskych-biskupiciach",
      "title": "DOM-REAL√çT pon√∫ka, zariaden√° neob√Ωvan√° novostavba  v Podunajsk√Ωch Biskupiciach",
      "longitude": 17.2285889,
      "city": "Bratislava II",
      "district": "Bratislava II",
      "price_per_meter": 3605.04,
      "pt_category": "üî¥ Pricey"
    },
    {
      "latitude": 48.144299074739585,
      "property_id": 13650,
      "street": "Klarisk√°, Bratislava I, Bratislava-Star√© Mesto",
      "room_category": "3",
      "median_ppm": 4508.2,
      "pt_ratio": 0.86,
      "url": "https://www.nehnutelnosti.sk/detail/JuQ9-NNjcGN/aj-investicne-na-airbnbl-3-izbovy-byt-na-pesej-zonel-v-srdci-stareho-mesta-na-klariskej-ulici",
      "title": "Aj investiƒçne na Airbnb, 3-izbov√Ω byt na pe≈°ej z√≥ne, v srdci Star√©ho mesta na Klariskej ulici",
      "longitude": 17.104780442423674,
      "city": "Bratislava I",
      "district": "Bratislava I",
      "price_per_meter": 3893.42,
      "pt_category": "üü¢ Deal"
    },
    {
      "latitude": 48.15231239131364,
      "property_id": 13641,
      "street": "Ad√°miho, Bratislava IV, Bratislava-Karlova Ves",
      "room_category": "4",
      "median_ppm": 3543.04,
      "pt_ratio": 0.89,
      "url": "https://www.nehnutelnosti.sk/detail/Ju9Rljlpq-f/na-predaj-krasnyl-velky-kompletne-zrekonstruovany-4-izbovy-byt-v-bratislavel-karlova-ves",
      "title": "Na predaj kr√°sny, veƒæk√Ω kompletne zrekon≈°truovan√Ω 4-izbov√Ω byt v Bratislave, Karlova Ves",
      "longitude": 17.055760090556277,
      "city": "Bratislava IV",
      "district": "Bratislava IV",
      "price_per_meter": 3152.07,
      "pt_category": "üü¢ Deal"
    },
    {
      "latitude": 48.08999975,
      "property_id": 843,
      "street": "Fialov√°, Bratislava V, Bratislava-Petr≈æalka",
      "room_category": "3",
      "median_ppm": 3283.58,
      "pt_ratio": 1.28,
      "url": "https://www.nehnutelnosti.sk/detail/JuOi81gkWMv/axis-real--3-izbovy-byt-s-parkovanim-a-velkou-lodzioul-uniq-slnecnice",
      "title": "AXIS REAL | 3-izbov√Ω byt s PARKOVAN√çM a VEƒΩKOU LOD≈ΩIOU, UNIQ SLNEƒåNICE",
      "longitude": 17.123045150000003,
      "city": "Bratislava V",
      "district": "Bratislava V",
      "price_per_meter": 4202.98,
      "pt_category": "üî¥ Pricey"
    },
    {
      "latitude": 48.15120280689539,
      "property_id": 13649,
      "street": "Bajkalsk√°, Bratislava II, Bratislava-Ru≈æinov",
      "room_category": "2",
      "median_ppm": 3989.96,
      "pt_ratio": 1.14,
      "url": "https://www.nehnutelnosti.sk/detail/JuyzW_jTJRF/u-nas--moderny-2i-bytl-novostavba-novy-ruzinovl-klimal-balkonl-bajkalska-ulica",
      "title": "U N√ÅS !!! MODERN√ù 2i byt, NOVOSTAVBA NOV√ù RU≈ΩINOV, KL√çMA, BALK√ìN, Bajk√°lska ulica",
      "longitude": 17.148810295841137,
      "city": "Bratislava II",
      "district": "Bratislava II",
      "price_per_meter": 4545.26,
      "pt_category": "üî¥ Pricey"
    },
    {
      "latitude": 48.15275448053671,
      "property_id": 13648,
      "street": "Poƒæsk√°, Bratislava I, Bratislava-Star√© Mesto",
      "room_category": "2",
      "median_ppm": 4998.57,
      "pt_ratio": 0.79,
      "url": "https://www.nehnutelnosti.sk/detail/JuFdZfHZ1ZL/apartim-sro-preda-velkyl-priestranny-2-izbovy-byt-v-tehlovom-dome-v-starom-meste-v-blizkosti-justicneho-palaca-",
      "title": "Apartim sro pred√° veƒæk√Ω, priestrann√Ω 2 izbov√Ω byt v tehlovom dome v Starom meste v bl√≠zkosti Justiƒçn√©ho pal√°ca.",
      "longitude": 17.124989534893196,
      "city": "Bratislava I",
      "district": "Bratislava I",
      "price_per_meter": 3969.7,
      "pt_category": "üü¢ Deal"
    },
    {
      "latitude": 48.1542597,
      "property_id": 13651,
      "street": "Kr√≠≈æna, Bratislava I, Bratislava-Star√© Mesto",
      "room_category": "4",
      "median_ppm": 4429.58,
      "pt_ratio": 1.02,
      "url": "https://www.nehnutelnosti.sk/detail/Juj28aTluwF/pnorf--zrekonstruovany-4i-bytl-90-m2l-2x-balkonl-komoral-ex-kobkal-krizna-ull-stare-mesto",
      "title": "PNORF ‚Äì zrekon≈°truovan√Ω 4i byt, 90 m2, 2x balk√≥n, komora, ex. kobka, Kr√≠≈æna ul., Star√© Mesto",
      "longitude": 17.123193049999998,
      "city": "Bratislava I",
      "district": "Bratislava I",
      "price_per_meter": 4500,
      "pt_category": "üü° Normal"
    },
    {
      "latitude": 48.1596804283261,
      "property_id": 13652,
      "street": "≈†pieszova, Bratislava IV, Bratislava-Karlova Ves",
      "room_category": "2",
      "median_ppm": 3834.615,
      "pt_ratio": 0.98,
      "url": "https://www.nehnutelnosti.sk/detail/Ju_kPwuBi1J/moderny-2izblspieszoval-65m2l-vyborna-lokalita-pri-namsvfrantiskal-okamzite-k-dispozicii",
      "title": "Modern√Ω 2izb,≈†pieszova, 65m2, v√Ωborn√° lokalita pri N√°m.sv.Franti≈°ka, okam≈æite k dispoz√≠cii",
      "longitude": 17.053532719310663,
      "city": "Bratislava IV",
      "district": "Bratislava IV",
      "price_per_meter": 3769.23,
      "pt_category": "üü° Normal"
    },
    {
      "latitude": 48.150889301281744,
      "property_id": 13653,
      "street": "Kres√°nkova, Bratislava IV, Bratislava-Karlova Ves",
      "room_category": "2",
      "median_ppm": 3834.615,
      "pt_ratio": 0.81,
      "url": "https://www.nehnutelnosti.sk/detail/JuniIvQO86f/velkometrazny-2-izb-byt-s-pozemkoml-vyhladavana-lokalital-kresankova",
      "title": "VEƒΩKOMETR√Å≈ΩNY 2 IZB. BYT s POZEMKOM, VYHƒΩAD√ÅVAN√Å LOKALITA, Kres√°nkova",
      "longitude": 17.049510388051225,
      "city": "Bratislava IV",
      "district": "Bratislava IV",
      "price_per_meter": 3098.57,
      "pt_category": "üü¢ Deal"
    },
    {
      "latitude": 48.1261440597863,
      "property_id": 13655,
      "street": "Z√°poro≈æsk√°, Bratislava V, Bratislava-Petr≈æalka",
      "room_category": "4",
      "median_ppm": 3642.71,
      "pt_ratio": 1.2,
      "url": "https://www.nehnutelnosti.sk/detail/JuZOwk_I6cP/luxusny-stvorizbovy-byt-s-terasou",
      "title": "Luxusn√Ω ≈°tvorizbov√Ω byt s terasou",
      "longitude": 17.097325916021312,
      "city": "Bratislava V",
      "district": "Bratislava V",
      "price_per_meter": 4354.55,
      "pt_category": "üî¥ Pricey"
    },
    {
      "latitude": 48.16922186321292,
      "property_id": 13657,
      "street": "Ivansk√° cesta, Bratislava II, Bratislava-Ru≈æinov",
      "room_category": "Gar√°≈æ",
      "median_ppm": 2166.67,
      "pt_ratio": 2.15,
      "url": "https://www.nehnutelnosti.sk/detail/Ju6ca7cD9lT/slnecna-garsonka-s-balkonom",
      "title": "Slneƒçn√° gars√≥nka s balk√≥nom",
      "longitude": 17.181522812571526,
      "city": "Bratislava II",
      "district": "Bratislava II",
      "price_per_meter": 4655.17,
      "pt_category": "üî¥ Pricey"
    },
    {
      "latitude": 48.20865049595092,
      "property_id": 13661,
      "street": "Alstrova, Bratislava III, Bratislava-Raƒça",
      "room_category": "Rodinn√Ω dom",
      "median_ppm": 2991.57,
      "pt_ratio": 0.88,
      "url": "https://www.nehnutelnosti.sk/detail/JuK1KLGJNbf/moderny-2-podlazny-byt-v-dvojdome-s-terasou-a-predzahradkoul-3-parkovacie-miesta-",
      "title": "Modern√Ω 2-podla≈æn√Ω byt v dvojdome s terasou a predz√°hradkou, 3 parkovacie miesta",
      "longitude": 17.144195529604808,
      "city": "Bratislava III",
      "district": "Bratislava III",
      "price_per_meter": 2621.21,
      "pt_category": "üü¢ Deal"
    },
    {
      "latitude": 48.14378627313387,
      "property_id": 13660,
      "street": "Gr√∂sslingova, Bratislava I, Bratislava-Star√© Mesto",
      "room_category": "2",
      "median_ppm": 4998.57,
      "pt_ratio": 0.83,
      "url": "https://www.nehnutelnosti.sk/detail/JuvYHe5l-cE/jan-pinka--byvajte-hnedl-alebo-si-vytvorte-uplne-novy-3-izbovy-byt-v-starom-meste",
      "title": "Jan Pinka | B√Ωvajte hneƒè, alebo si vytvorte √∫plne nov√Ω 3-izbov√Ω byt v Starom Meste!",
      "longitude": 17.114525465770075,
      "city": "Bratislava I",
      "district": "Bratislava I",
      "price_per_meter": 4154.04,
      "pt_category": "üü¢ Deal"
    },
    {
      "latitude": 48.14479506766201,
      "property_id": 13662,
      "street": "Plyn√°rensk√°, Bratislava II, Bratislava-Ru≈æinov",
      "room_category": "2",
      "median_ppm": 3989.96,
      "pt_ratio": 1.38,
      "url": "https://www.nehnutelnosti.sk/detail/Ju_9X42pViZ/city-park-ruzinovl-veza-bl-2-izbovy-byt-s-loggioul-parkovacim-miestom",
      "title": "CITY PARK RU≈ΩINOV, VE≈ΩA B, 2-IZBOV√ù BYT s LOGGIOU, PARKOVAC√çM MIESTOM",
      "longitude": 17.142003824521698,
      "city": "Bratislava II",
      "district": "Bratislava II",
      "price_per_meter": 5500,
      "pt_category": "üî¥ Pricey"
    },
    {
      "latitude": 48.1577148395028,
      "property_id": 13663,
      "street": "Kom√°rnick√°, Bratislava II, Bratislava-Ru≈æinov",
      "room_category": "3",
      "median_ppm": 3615.38,
      "pt_ratio": 1.19,
      "url": "https://www.nehnutelnosti.sk/detail/JuNTYnUgGCS/krasny-3-izb-byt-v-top-lokalite",
      "title": "KR√ÅSNY 3 IZB. BYT V TOP LOKALITE",
      "longitude": 17.15319421300798,
      "city": "Bratislava II",
      "district": "Bratislava II",
      "price_per_meter": 4285.54,
      "pt_category": "üî¥ Pricey"
    },
    {
      "latitude": 48.1577148395028,
      "property_id": 13664,
      "street": "Kom√°rnick√°, Bratislava II, Bratislava-Ru≈æinov",
      "room_category": "2",
      "median_ppm": 3989.96,
      "pt_ratio": 1.07,
      "url": "https://www.nehnutelnosti.sk/detail/JucYMFCIdIWh/krasny-3-izb-byt-v-top-lokalite",
      "title": "KR√ÅSNY 3 IZB. BYT V TOP LOKALITE",
      "longitude": 17.15319421300798,
      "city": "Bratislava II",
      "district": "Bratislava II",
      "price_per_meter": 4285.54,
      "pt_category": "üü° Normal"
    },
    {
      "latitude": 48.11213917324514,
      "property_id": 13665,
      "street": "Iƒæju≈°inova, Bratislava V, Bratislava-Petr≈æalka",
      "room_category": "3",
      "median_ppm": 3283.58,
      "pt_ratio": 1.09,
      "url": "https://www.nehnutelnosti.sk/detail/JuqWq8fN79_/krasny-4-izb-byt-v-srdci-petrzalky",
      "title": "KR√ÅSNY 4 IZB. BYT V SRDCI PETR≈ΩALKY",
      "longitude": 17.103900155424892,
      "city": "Bratislava V",
      "district": "Bratislava V",
      "price_per_meter": 3571.29,
      "pt_category": "üü° Normal"
    },
    {
      "latitude": 48.20763337702536,
      "property_id": 13669,
      "street": "Sadmelijsk√°, Bratislava III, Bratislava-Raƒça",
      "room_category": "Gar√°≈æ",
      "median_ppm": 2100.49,
      "pt_ratio": 0.99,
      "url": "https://www.nehnutelnosti.sk/detail/Ju5INDBJ8il/garaz-v-raci-sadmelijska-ulica",
      "title": "Gar√°≈æ v Raƒçi Sadmelijsk√° ulica",
      "longitude": 17.147066608455805,
      "city": "Bratislava III",
      "district": "Bratislava III",
      "price_per_meter": 2083.33,
      "pt_category": "üü° Normal"
    },
    {
      "latitude": 48.14850355,
      "property_id": 13672,
      "street": "Alb√≠na Brunovsk√©ho 2, Bratislava IV, Bratislava-Karlova Ves",
      "room_category": "4",
      "median_ppm": 3543.04,
      "pt_ratio": 1.12,
      "url": "https://www.nehnutelnosti.sk/detail/JuzSnZKTV3Y/luxusnyl-velkometrazny-4-izbovy-byt-s-nadstandardnou-terasou-s-panoramatickym-vyhladom",
      "title": "Luxusn√Ω, veƒækometr√°≈æny 4-izbov√Ω byt s nad≈°tandardnou terasou s panoramatick√Ωm v√Ωhƒæadom",
      "longitude": 17.050186166978712,
      "city": "Bratislava IV",
      "district": "Bratislava IV",
      "price_per_meter": 3954.55,
      "pt_category": "üî¥ Pricey"
    },
    {
      "latitude": 48.20026708693953,
      "property_id": 13673,
      "street": "Ag√°tov√°, Bratislava IV, Bratislava-D√∫bravka",
      "room_category": "Gar√°≈æ",
      "median_ppm": 1559.72,
      "pt_ratio": 0.93,
      "url": "https://www.nehnutelnosti.sk/detail/Ju-L9rhAaVP/nidal-predaj---garaze-agatova---vnutorne-parkovanie-na-agatovej-ulici-v-dubravke",
      "title": "NIDAL: Predaj - Gar√°≈æe Ag√°tov√° - vn√∫torn√© parkovanie na Ag√°tovej ulici v D√∫bravke",
      "longitude": 17.01326257129442,
      "city": "Bratislava IV",
      "district": "Bratislava IV",
      "price_per_meter": 1458.33,
      "pt_category": "üü° Normal"
    },
    {
      "latitude": 48.20026708693953,
      "property_id": 13674,
      "street": "Ag√°tov√°, Bratislava IV, Bratislava-D√∫bravka",
      "room_category": "Gar√°≈æ",
      "median_ppm": 1559.72,
      "pt_ratio": 0.89,
      "url": "https://www.nehnutelnosti.sk/detail/JuqmjJ_-vu9/nidal-predaj---garaze-agatova---vnutorne-parkovanie-na-agatovej-ulici-v-dubravke",
      "title": "NIDAL: Predaj - Gar√°≈æe Ag√°tov√° - vn√∫torn√© parkovanie na Ag√°tovej ulici v D√∫bravke",
      "longitude": 17.01326257129442,
      "city": "Bratislava IV",
      "district": "Bratislava IV",
      "price_per_meter": 1388.89,
      "pt_category": "üü¢ Deal"
    },
    {
      "latitude": 48.20026708693953,
      "property_id": 13675,
      "street": "Ag√°tov√°, Bratislava IV, Bratislava-D√∫bravka",
      "room_category": "2",
      "median_ppm": 3834.615,
      "pt_ratio": 0.91,
      "url": "https://www.nehnutelnosti.sk/detail/Ju1TKcKxbLB/predaj--priestranny-apartman-v-dubravkel-agatova-ulica",
      "title": "PREDAJ : priestrann√Ω apartm√°n v D√∫bravke, Ag√°tov√° ulica",
      "longitude": 17.01326257129442,
      "city": "Bratislava IV",
      "district": "Bratislava IV",
      "price_per_meter": 3479.17,
      "pt_category": "üü° Normal"
    },
    {
      "latitude": 48.15797565,
      "property_id": 13676,
      "street": "Raƒçianske m√Ωto, Bratislava III, Bratislava-Nov√© Mesto",
      "room_category": "2",
      "median_ppm": 4166.53,
      "pt_ratio": 1.05,
      "url": "https://www.nehnutelnosti.sk/detail/JuBpgV196nM/arvin--benet--svetly-2i-byt-v-ziadanej-lokalite-pri-racianskom-myte",
      "title": "Arvin & Benet | Svetl√Ω 2i byt v ≈æiadanej lokalite pri Raƒçianskom m√Ωte",
      "longitude": 17.11929701363188,
      "city": "Bratislava III",
      "district": "Bratislava III",
      "price_per_meter": 4375,
      "pt_category": "üü° Normal"
    },
    {
      "latitude": 48.1537551,
      "property_id": 13686,
      "street": "ƒΩ. Fullu, Bratislava IV, Bratislava-Karlova Ves",
      "room_category": "3",
      "median_ppm": 3289.47,
      "pt_ratio": 0.93,
      "url": "https://www.nehnutelnosti.sk/detail/Ju-mSiqTOBCH/kompletne-zrekonstruovany-a-zariadeny-3-izbovy-byt-s-dvomi-loggiami-v-prijemnej-lokalite",
      "title": "Kompletne zrekon≈°truovan√Ω a zariaden√Ω 3 izbov√Ω byt s dvomi loggiami v pr√≠jemnej lokalite",
      "longitude": 17.051568813076923,
      "city": "Bratislava IV",
      "district": "Bratislava IV",
      "price_per_meter": 3065.33,
      "pt_category": "üü° Normal"
    },
    {
      "latitude": 48.1554785,
      "property_id": 13687,
      "street": "Astrov√°, Bratislava II, Bratislava-Ru≈æinov",
      "room_category": "3",
      "median_ppm": 3615.38,
      "pt_ratio": 0.92,
      "url": "https://www.nehnutelnosti.sk/detail/JuWd2kUp62T/novinka-v-ponuke---3-izbovy-byt-na-astrovej-ulici",
      "title": "Novinka v ponuke - 3 izbov√Ω byt na Astrovej ulici",
      "longitude": 17.157946998857255,
      "city": "Bratislava II",
      "district": "Bratislava II",
      "price_per_meter": 3336.62,
      "pt_category": "üü° Normal"
    },
    {
      "latitude": 48.164576743466625,
      "property_id": 13685,
      "street": "Trnavsk√° cesta, Bratislava II, Bratislava-Ru≈æinov",
      "room_category": "2",
      "median_ppm": 3989.96,
      "pt_ratio": 1,
      "url": "https://www.nehnutelnosti.sk/detail/JuLXlFhQ4Tu/na-predaj--priestranny-a-pekne-zariadeny-2-izbovy-byt-v-ruzinove",
      "title": "NA PREDAJ | Priestrann√Ω a pekne zariaden√Ω 2 izbov√Ω byt v Ru≈æinove",
      "longitude": 17.151468118622955,
      "city": "Bratislava II",
      "district": "Bratislava II",
      "price_per_meter": 3982.09,
      "pt_category": "üü° Normal"
    },
    {
      "latitude": 48.16836881547979,
      "property_id": 13688,
      "street": "Tom√°≈°ikova, Bratislava III, Bratislava-Nov√© Mesto",
      "room_category": "3",
      "median_ppm": 3693.015,
      "pt_ratio": 1.13,
      "url": "https://www.nehnutelnosti.sk/detail/JudfDkd0ZHd/krasny-3-izbovy-byt-v-komplexe-koloseol-tomasikoval-nove-mesto",
      "title": "KR√ÅSNY 3-IZBOV√ù BYT V KOMPLEXE KOLOSEO, TOM√Å≈†IKOVA, NOV√â MESTO",
      "longitude": 17.15060014022593,
      "city": "Bratislava III",
      "district": "Bratislava III",
      "price_per_meter": 4175.68,
      "pt_category": "üî¥ Pricey"
    },
    {
      "latitude": 48.146203975590225,
      "property_id": 13699,
      "street": "Karad≈æiƒçova, Bratislava I, Bratislava-Star√© Mesto",
      "room_category": "Orn√° poda",
      "median_ppm": 1988.15,
      "pt_ratio": 0.84,
      "url": "https://www.nehnutelnosti.sk/detail/JuPa7_NvywV/predaj-nebytovy-priestor---atelierl-karadzicova-ulical-bratislava-i-stare-mesto",
      "title": "Predaj nebytov√Ω priestor - ateli√©r, Karad≈æiƒçova ulica, Bratislava I. Star√© Mesto",
      "longitude": 17.123788410030503,
      "city": "Bratislava I",
      "district": "Bratislava I",
      "price_per_meter": 1665.92,
      "pt_category": "üü¢ Deal"
    },
    {
      "latitude": 48.14502719514529,
      "property_id": 13700,
      "street": "Mierov√°, Bratislava II, Bratislava-Ru≈æinov",
      "room_category": "1",
      "median_ppm": 4598.5,
      "pt_ratio": 0.81,
      "url": "https://www.nehnutelnosti.sk/detail/JuyHBHfiIL4/priestranny-1-izbovy-byt-s-lodzioul-mierova-ulical-bratislava-ii-ruzinov",
      "title": "Priestrann√Ω 1 izbov√Ω byt s lod≈æiou, Mierov√° ulica, Bratislava II. Ru≈æinov",
      "longitude": 17.185876247872876,
      "city": "Bratislava II",
      "district": "Bratislava II",
      "price_per_meter": 3711.11,
      "pt_category": "üü¢ Deal"
    },
    {
      "latitude": 48.20026708693953,
      "property_id": 13705,
      "street": "Ag√°tov√°, Bratislava IV, Bratislava-D√∫bravka",
      "room_category": "3",
      "median_ppm": 3289.47,
      "pt_ratio": 0.86,
      "url": "https://www.nehnutelnosti.sk/detail/JuZuUSJva-a/priestranny-3-izbovy-byt-s-velkou-terasou-na-ulici-agatova-",
      "title": "Priestrann√Ω 3-izbov√Ω byt s veƒækou terasou na ulici Ag√°tov√°",
      "longitude": 17.01326257129442,
      "city": "Bratislava IV",
      "district": "Bratislava IV",
      "price_per_meter": 2829.25,
      "pt_category": "üü¢ Deal"
    },
    {
      "latitude": 48.13685708672397,
      "property_id": 13706,
      "street": "Kom√°rovsk√°, Bratislava II, Bratislava-Podunajsk√© Biskupice",
      "room_category": "Rodinn√Ω dom",
      "median_ppm": 2870.37,
      "pt_ratio": 1.02,
      "url": "https://www.nehnutelnosti.sk/detail/Jue8mMGFyoH/predaj-2-podlazny-rodinny-dom-na-pozemku-o-rozlohe-337l5m2",
      "title": "Predaj: 2-podla≈æn√Ω rodinn√Ω dom na pozemku o rozlohe 337,5m2",
      "longitude": 17.19821023236251,
      "city": "Bratislava II",
      "district": "Bratislava II",
      "price_per_meter": 2925.8,
      "pt_category": "üü° Normal"
    },
    {
      "latitude": 48.0962113,
      "property_id": 13707,
      "street": "Jasovsk√° 7, Bratislava V, Bratislava-Petr≈æalka",
      "room_category": "3",
      "median_ppm": 3283.58,
      "pt_ratio": 1.08,
      "url": "https://www.nehnutelnosti.sk/detail/JugLDPvy4KV/impereal---na-predaj-3--izbbyt-v-petrzalke---kompletna-nova-rekonstrukcia",
      "title": "IMPEREAL - NA PREDAJ 3- izb.byt v Petr≈æalke - KOMPLETN√Å NOV√Å  REKON≈†TRUKCIA",
      "longitude": 17.11162372286808,
      "city": "Bratislava V",
      "district": "Bratislava V",
      "price_per_meter": 3561.64,
      "pt_category": "üü° Normal"
    },
    {
      "latitude": 48.163323951141216,
      "property_id": 13708,
      "street": "Sabinovsk√°, Bratislava II, Bratislava-Ru≈æinov",
      "room_category": "3",
      "median_ppm": 3615.38,
      "pt_ratio": 1.06,
      "url": "https://www.nehnutelnosti.sk/detail/JuaPGmAIXXo/na-predaj-pekny-3-izbovy-byt-bratislava-ruzinov",
      "title": "NA PREDAJ PEKN√ù 3 IZBOV√ù BYT BRATISLAVA RU≈ΩINOV",
      "longitude": 17.1460446465196,
      "city": "Bratislava II",
      "district": "Bratislava II",
      "price_per_meter": 3844.98,
      "pt_category": "üü° Normal"
    },
    {
      "latitude": 48.15544584901224,
      "property_id": 846,
      "street": "Andreja Mr√°za, Bratislava II, Bratislava-Ru≈æinov",
      "room_category": "3",
      "median_ppm": 3615.38,
      "pt_ratio": 0.77,
      "url": "https://www.nehnutelnosti.sk/detail/Juo5nxDXL7W/oblubena-lokalita---plna-zelene---bezbarierovy-3-izl-a-mraza-ull-ruzinovl-ba-2l-200-000l----wwwblrealitycom",
      "title": "OBƒΩ√öBEN√Å LOKALITA - pln√° zelene - bezbari√©rov√Ω: 3 iz., A. Mr√°za ul., Ru≈æinov, BA 2, 200 000,-‚Ç¨ - www.BLREALITY.COM",
      "longitude": 17.169900959776527,
      "city": "Bratislava II",
      "district": "Bratislava II",
      "price_per_meter": 2777.78,
      "pt_category": "üü¢ Deal"
    },
    {
      "latitude": 48.14800371382099,
      "property_id": 849,
      "street": "Liptovsk√°, Bratislava II, Bratislava-Ru≈æinov",
      "room_category": "5",
      "median_ppm": 3239.61,
      "pt_ratio": 1.54,
      "url": "https://www.nehnutelnosti.sk/detail/JuOTIniWBD5/reality--byvanie-rezidencne-byvanie-v-mezonetovom-5i-byte-s-dvomi-loggiami-na-nivach---liptovska-ulica",
      "title": "Reality & B√Ωvanie: Rezidenƒçn√© b√Ωvanie v mezonetovom 5i byte s dvomi loggiami na Niv√°ch - Liptovsk√° ulica",
      "longitude": 17.1398213118461,
      "city": "Bratislava II",
      "district": "Bratislava II",
      "price_per_meter": 4993.21,
      "pt_category": "üî¥ Pricey"
    },
    {
      "latitude": 48.14800371382099,
      "property_id": 850,
      "street": "Liptovsk√°, Bratislava II, Bratislava-Ru≈æinov",
      "room_category": "4",
      "median_ppm": 3755.765,
      "pt_ratio": 1.3,
      "url": "https://www.nehnutelnosti.sk/detail/JuWwBlM4wYo/reality--byvanie-rezidencne-byvanie-v-mezonetovom-4i-byte-s-2-loggiami-na-nivach---liptovska-ulica",
      "title": "Reality & B√Ωvanie: Rezidenƒçn√© b√Ωvanie v mezonetovom 4i byte s 2 loggiami na Niv√°ch - Liptovsk√° ulica",
      "longitude": 17.1398213118461,
      "city": "Bratislava II",
      "district": "Bratislava II",
      "price_per_meter": 4885.85,
      "pt_category": "üî¥ Pricey"
    },
    {
      "latitude": 48.14800371382099,
      "property_id": 851,
      "street": "Liptovsk√°, Bratislava II, Bratislava-Ru≈æinov",
      "room_category": "3",
      "median_ppm": 3615.38,
      "pt_ratio": 1.54,
      "url": "https://www.nehnutelnosti.sk/detail/JuZl3tdm9pT/reality--byvanie-rezidencne-byvanie-v-3i-byte-s-loggiou-na-nivach---liptovska-ulica",
      "title": "Reality & B√Ωvanie: Rezidenƒçn√© b√Ωvanie v 3i byte s loggiou na Niv√°ch - Liptovsk√° ulica",
      "longitude": 17.1398213118461,
      "city": "Bratislava II",
      "district": "Bratislava II",
      "price_per_meter": 5563.38,
      "pt_category": "üî¥ Pricey"
    },
    {
      "latitude": 48.14800371382099,
      "property_id": 852,
      "street": "Liptovsk√°, Bratislava II, Bratislava-Ru≈æinov",
      "room_category": "2",
      "median_ppm": 3989.96,
      "pt_ratio": 1.49,
      "url": "https://www.nehnutelnosti.sk/detail/Ju6FnodF4RI/reality--byvanie-rezidencne-byvanie-v-2i-byte-s-loggiou-na-nivach---liptovska-ulica",
      "title": "Reality & B√Ωvanie: Rezidenƒçn√© b√Ωvanie v 2i byte s loggiou na Niv√°ch - Liptovsk√° ulica",
      "longitude": 17.1398213118461,
      "city": "Bratislava II",
      "district": "Bratislava II",
      "price_per_meter": 5936.63,
      "pt_category": "üî¥ Pricey"
    },
    {
      "latitude": 48.14800371382099,
      "property_id": 853,
      "street": "Liptovsk√°, Bratislava II, Bratislava-Ru≈æinov",
      "room_category": "1",
      "median_ppm": 4598.5,
      "pt_ratio": 1.25,
      "url": "https://www.nehnutelnosti.sk/detail/JuI1yd4xOOl/reality--byvanie-rezidencne-byvanie-v-1i-byte-s-velkou-loggiou-na-nivach---liptovska-ulica",
      "title": "Reality & B√Ωvanie: Rezidenƒçn√© b√Ωvanie v 1i byte s veƒækou loggiou na Niv√°ch - Liptovsk√° ulica",
      "longitude": 17.1398213118461,
      "city": "Bratislava II",
      "district": "Bratislava II",
      "price_per_meter": 5734.29,
      "pt_category": "üî¥ Pricey"
    },
    {
      "latitude": 48.14518178999613,
      "property_id": 854,
      "street": "Hrachov√°, Bratislava II, Bratislava-Ru≈æinov",
      "room_category": "2",
      "median_ppm": 3989.96,
      "pt_ratio": 0.97,
      "url": "https://www.nehnutelnosti.sk/detail/Jul1hh3Akpg/lexxus--utulny-2-izb-byt-v-novostavbel-parkovaniel-prievozl-ba-ii",
      "title": "LEXXUS | √∫tuln√Ω 2-izb. byt v novostavbe, parkovanie, Prievoz, BA II",
      "longitude": 17.18255332678579,
      "city": "Bratislava II",
      "district": "Bratislava II",
      "price_per_meter": 3888.89,
      "pt_category": "üü° Normal"
    },
    {
      "latitude": 48.11553595182228,
      "property_id": 869,
      "street": "Markova, Bratislava V, Bratislava-Petr≈æalka",
      "room_category": "3",
      "median_ppm": 3283.58,
      "pt_ratio": 0.89,
      "url": "https://www.nehnutelnosti.sk/detail/Ju_WG3G-Sk8/rezervovane-svetly-3-izbovy-byt-s-loggiou-v-srdci-petrzalky-na-markovej-ulici",
      "title": "REZERVOVAN√â! SVETL√ù 3-IZBOV√ù BYT S LOGGIOU V SRDCI PETR≈ΩALKY NA MARKOVEJ ULICI",
      "longitude": 17.1056883406809,
      "city": "Bratislava V",
      "district": "Bratislava V",
      "price_per_meter": 2906.47,
      "pt_category": "üü¢ Deal"
    },
    {
      "latitude": 48.147200280305675,
      "property_id": 13631,
      "street": "Hradsk√°, Bratislava II, Bratislava-Vraku≈àa",
      "room_category": "Rodinn√Ω dom",
      "median_ppm": 2870.37,
      "pt_ratio": 1.11,
      "url": "https://www.nehnutelnosti.sk/detail/Ju36dv6zZhG/novostavba-trojpodlazneho-sestizboveho-rodinneho-domu",
      "title": "NOVOSTAVBA TROJPODLA≈ΩN√âHO ≈†ES≈§IZBOV√âHO RODINN√âHO DOMU",
      "longitude": 17.20652180755047,
      "city": "Bratislava II",
      "district": "Bratislava II",
      "price_per_meter": 3177.75,
      "pt_category": "üî¥ Pricey"
    },
    {
      "latitude": 48.16270594628457,
      "property_id": 13632,
      "street": "Solo≈°nick√°, Bratislava IV, Bratislava-Karlova Ves",
      "room_category": "Rodinn√Ω dom",
      "median_ppm": 2663.33,
      "pt_ratio": 0.85,
      "url": "https://www.nehnutelnosti.sk/detail/Ju3VMQh2Y9x/vynimocny-8-izbovy-rodinny-dom-v-lone-prirody---karlova-ves",
      "title": "V√Ωnimoƒçn√Ω 8-izbov√Ω rodinn√Ω dom v lone pr√≠rody - Karlova Ves",
      "longitude": 17.04342614103936,
      "city": "Bratislava IV",
      "district": "Bratislava IV",
      "price_per_meter": 2271.47,
      "pt_category": "üü¢ Deal"
    },
    {
      "latitude": 48.1629542,
      "property_id": 13634,
      "street": "Habursk√° 13, Bratislava II, Bratislava-Ru≈æinov",
      "room_category": "4",
      "median_ppm": 3755.765,
      "pt_ratio": 1.04,
      "url": "https://www.nehnutelnosti.sk/detail/JuM1cz7LxUX/berg--bauman--predaj---4-izbovy-bytl-strkovec--top--rekonstrukcia-a-lokalita",
      "title": "Berg & Bauman ‚Äì PREDAJ - 4-izbov√Ω byt, ≈†TRKOVEC -TOP- REKON≈†TRUKCIA A LOKALITA",
      "longitude": 17.150138271575983,
      "city": "Bratislava II",
      "district": "Bratislava II",
      "price_per_meter": 3898.55,
      "pt_category": "üü° Normal"
    },
    {
      "latitude": 48.1629542,
      "property_id": 13635,
      "street": "Habursk√° 13, Bratislava II, Bratislava-Ru≈æinov",
      "room_category": "3",
      "median_ppm": 3615.38,
      "pt_ratio": 1.08,
      "url": "https://www.nehnutelnosti.sk/detail/Jua0p2Gxi-q/berg--bauman--predaj---4-izbovy-bytl-strkovec--top--rekonstrukcia-a-lokalita",
      "title": "Berg & Bauman ‚Äì PREDAJ - 4-izbov√Ω byt, ≈†TRKOVEC -TOP- REKON≈†TRUKCIA A LOKALITA",
      "longitude": 17.150138271575983,
      "city": "Bratislava II",
      "district": "Bratislava II",
      "price_per_meter": 3898.55,
      "pt_category": "üü° Normal"
    },
    {
      "latitude": 48.14188965732934,
      "property_id": 13636,
      "street": "Pr√≠stavn√°, Bratislava II, Bratislava-Ru≈æinov",
      "room_category": "3",
      "median_ppm": 3615.38,
      "pt_ratio": 1.08,
      "url": "https://www.nehnutelnosti.sk/detail/Judg7DARxCp/nadstandardny-3-izbovy-byt-v-premiovom-projekte-v-blizkosti-downtownul-114-m2",
      "title": "Nad≈°tandardn√Ω 3-izbov√Ω byt v pr√©miovom projekte v bl√≠zkosti downtownu, 114 m2",
      "longitude": 17.14049873708697,
      "city": "Bratislava II",
      "district": "Bratislava II",
      "price_per_meter": 3917.76,
      "pt_category": "üü° Normal"
    },
    {
      "latitude": 48.128733749999995,
      "property_id": 13638,
      "street": "Hviezdna 6, Bratislava II, Bratislava-Podunajsk√© Biskupice",
      "room_category": "Rodinn√Ω dom",
      "median_ppm": 2870.37,
      "pt_ratio": 0.8,
      "url": "https://www.nehnutelnosti.sk/detail/JuAl2Xt0BS-/dom-realit-ponuka-velky-7-8-izbovy-dom-s-dvojgarazou-i-podunajske-biskupice",
      "title": "DOM-REAL√çT pon√∫ka  veƒæk√Ω 7-8 izbov√Ω dom s dvojgar√°≈æou I Podunajsk√© Biskupice",
      "longitude": 17.210349893757,
      "city": "Bratislava II",
      "district": "Bratislava II",
      "price_per_meter": 2291.67,
      "pt_category": "üü¢ Deal"
    },
    {
      "latitude": 48.15760395,
      "property_id": 873,
      "street": "J√©g√©ho, Bratislava II, Bratislava-Ru≈æinov",
      "room_category": "2",
      "median_ppm": 3989.96,
      "pt_ratio": 1.45,
      "url": "https://www.nehnutelnosti.sk/detail/Ju3k6j_M6rz/rezervovane-2-izbbytl-zariadenyl-balkonl-klimal-ull-jegehol-bratislava",
      "title": "REZERVOVAN√â!!! 2-IZB.BYT, ZARIADEN√ù, BALK√ìN, KL√çMA, ul., J√âG√âHO, BRATISLAVA",
      "longitude": 17.13580805,
      "city": "Bratislava II",
      "district": "Bratislava II",
      "price_per_meter": 5782.61,
      "pt_category": "üî¥ Pricey"
    },
    {
      "latitude": 48.1282834,
      "property_id": 10835,
      "street": "Bos√°kova 7, Bratislava V, Bratislava-Petr≈æalka",
      "room_category": "Orn√° poda",
      "median_ppm": 2569.81,
      "pt_ratio": 0.93,
      "url": "https://www.nehnutelnosti.sk/detail/JuCi5fhb2u4/dom-realit-ponukal-obchodne-priestory-v-petrzalke",
      "title": "DOM-REAL√çT pon√∫ka, obchodn√© priestory v Petr≈æalke",
      "longitude": 17.1208869,
      "city": "Bratislava V",
      "district": "Bratislava V",
      "price_per_meter": 2401.52,
      "pt_category": "üü° Normal"
    },
    {
      "latitude": 48.15222689338778,
      "property_id": 10878,
      "street": "Miletiƒçova, Bratislava II, Bratislava-Ru≈æinov",
      "room_category": "Orn√° poda",
      "median_ppm": 2065.75,
      "pt_ratio": 0.55,
      "url": "https://www.nehnutelnosti.sk/detail/Jud3odCJvQu/arvin--benet--odstupenie-zabehnuteho-studia--kliniky-krasy-be-beauty-",
      "title": "Arvin & Benet | Odst√∫penie zabehnut√©ho ≈°t√∫dia / kliniky kr√°sy Be Beauty",
      "longitude": 17.137455513586275,
      "city": "Bratislava II",
      "district": "Bratislava II",
      "price_per_meter": 1130.95,
      "pt_category": "üü¢ Deal"
    }
  ]
}